{
"type": "FeatureCollection",
"crs": { "type": "name", "properties": { "name": "urn:ogc:def:crs:OGC:1.3:CRS84" } },
                                                                                
"features": [
{ "type": "Feature", "properties": { "index": "31a", "code": "swa_st_eai", "title": "swalaska_stalbot_easternaleutianislands", "source": "Talbot et al. 2010a", "lat": "53.894485", "lon": "-166.5423", "plots": "70", "photo": "", "url": "", "detailed_map_url": "", "group": "31", "url_class": "", "img_class": "", "marker-color": " ", "marker-symbol": "square" }, "geometry": { "type": "Point", "coordinates": [ -166.5423, 53.894485 ] } },
{ "type": "Feature", "properties": { "index": "31b", "code": "swa_st_cai", "title": "swalaska_stalbot_centralaleutianislands", "source": "", "lat": "51.863788", "lon": "-176.6364", "plots": "", "photo": "", "url": "", "detailed_map_url": "", "group": "31", "url_class": "", "img_class": "", "marker-color": " ", "marker-symbol": "square" }, "geometry": { "type": "Point", "coordinates": [ -176.6364, 51.863788 ] } },
{ "type": "Feature", "properties": { "index": "31c", "code": "swa_st_wai", "title": "swalaska_stalbot_westernaleutianislands", "source": "Talbot & Talbot 1994", "lat": "52.832396", "lon": "-173.1797", "plots": "76", "photo": "", "url": "", "detailed_map_url": "", "group": "31", "url_class": "", "img_class": "", "marker-color": " ", "marker-symbol": "square" }, "geometry": { "type": "Point", "coordinates": [ -173.1797, 52.832396 ] } },
{ "type": "Feature", "properties": { "index": "31d", "code": "swa_st_niap", "title": "swalaska_stalbot_neighborislandsalaskapeninsula", "source": "Talbot & Talbot 2008, Daniels et al. 2004", "lat": "54.893743", "lon": "-159.272", "plots": "30", "photo": "", "url": "", "detailed_map_url": "", "group": "31", "url_class": "", "img_class": "", "marker-color": " ", "marker-symbol": "square" }, "geometry": { "type": "Point", "coordinates": [ -159.272, 54.893743 ] } },
{ "type": "Feature", "properties": { "index": "31e", "code": "swa_st_ap", "title": "swalaska_stalbot_alaskapeninsulabecharofnwr", "source": "", "lat": "58.085882", "lon": "-156.4305", "plots": "", "photo": "", "url": "", "detailed_map_url": "", "group": "31", "url_class": "", "img_class": "", "marker-color": " ", "marker-symbol": "square" }, "geometry": { "type": "Point", "coordinates": [ -156.4305, 58.085882 ] } },
{ "type": "Feature", "properties": { "index": "31f", "code": "swa_st_inwr", "title": "swalaska_stalbot_izembeknwr", "source": "", "lat": "55.28674", "lon": "-162.6811", "plots": "", "photo": "", "url": "", "detailed_map_url": "", "group": "31", "url_class": "", "img_class": "", "marker-color": " ", "marker-symbol": "square" }, "geometry": { "type": "Point", "coordinates": [ -162.6811, 55.28674 ] } },
{ "type": "Feature", "properties": { "index": "31g", "code": "swa_st_kdka", "title": "swalaska_stalbot_kodiakarchipelago", "source": "", "lat": "57.659969", "lon": "-153.6363", "plots": "", "photo": "", "url": "", "detailed_map_url": "", "group": "31", "url_class": "", "img_class": "", "marker-color": " ", "marker-symbol": "square" }, "geometry": { "type": "Point", "coordinates": [ -153.6363, 57.659969 ] } },
{ "type": "Feature", "properties": { "index": "31h", "code": "swa_st_snwr", "title": "swalaska_stalbot_selawiknwr", "source": "", "lat": "66.580622", "lon": "-159.173", "plots": "", "photo": "", "url": "", "detailed_map_url": "", "group": "31", "url_class": "", "img_class": "", "marker-color": " ", "marker-symbol": "square" }, "geometry": { "type": "Point", "coordinates": [ -159.173, 66.580622 ] } }
]
}
